{
    "meta": {
        "pagination": {
            "total_count": 16089,
            "total_pages": 1,
            "current_page": 1,
            "limit": 3000
        }
    },
    "data": [
        {
            "PrimaryLanguageName": "Ache",
            "BibleStatus": 3,
            "Latitude": 24.68310999999999921783455647528171539306640625,
            "Longitude": 101.974209999999999354258761741220951080322265625,
            "NaturalName": "A Che",
            "Ctry": "China",
            "Population": 42000,
            "Continent": "Asia",
            "PeopleID3": 18385,
            "ROG3": "CH"
        },
        {
            "PrimaryLanguageName": "Chinese, Mandarin",
            "BibleStatus": 5,
            "Latitude": 26.94064487815860076125318300910294055938720703125,
            "Longitude": 106.02223729121800488428561948239803314208984375,
            "NaturalName": "A'ou",
            "Ctry": "China",
            "Population": 2800,
            "Continent": "Asia",
            "PeopleID3": 18399,
            "ROG3": "CH"
        },
        {
            "PrimaryLanguageName": "Miao, Large Flowery",
            "BibleStatus": 5,
            "Latitude": 27.86818999996850010347770876251161098480224609375,
            "Longitude": 104.060380000137001843540929257869720458984375,
            "NaturalName": "A-Hmao",
            "Ctry": "China",
            "Population": 452000,
            "Continent": "Asia",
            "PeopleID3": 18388,
            "ROG3": "CH"
        },
        {
            "PrimaryLanguageName": "Aari",
            "BibleStatus": 5,
            "Latitude": 5.93414000000000019241497284383513033390045166015625,
            "Longitude": 36.5590600000000023328539100475609302520751953125,
            "NaturalName": "Aari",
            "Ctry": "Ethiopia",
            "Population": 521000,
            "Continent": "Africa",
            "PeopleID3": 10424,
            "ROG3": "ET"
        },
        {
            "PrimaryLanguageName": "Abanyom",
            "BibleStatus": 3,
            "Latitude": 6.2970600000000001017497197608463466167449951171875,
            "Longitude": 8.637750000000000483169060316868126392364501953125,
            "NaturalName": "Abanyom",
            "Ctry": "Nigeria",
            "Population": 35000,
            "Continent": "Africa",
            "PeopleID3": 10122,
            "ROG3": "NI"
        },
        {
            "PrimaryLanguageName": "Pal",
            "BibleStatus": 2,
            "Latitude": -4.75626000000000015432988220709376037120819091796875,
            "Longitude": 145.23511999999999488863977603614330291748046875,
            "NaturalName": "Abasakur",
            "Ctry": "Papua New Guinea",
            "Population": 2300,
            "Continent": "Australia",
            "PeopleID3": 10123,
            "ROG3": "PP"
        },
        {
            "PrimaryLanguageName": "Abau",
            "BibleStatus": 4,
            "Latitude": -4.0580400000000000915179043659009039402008056640625,
            "Longitude": 141.211109999999990805008565075695514678955078125,
            "NaturalName": "Abau, Green River",
            "Ctry": "Papua New Guinea",
            "Population": 11000,
            "Continent": "Australia",
            "PeopleID3": 10124,
            "ROG3": "PP"
        },
        {
            "PrimaryLanguageName": "Abaza",
            "BibleStatus": 3,
            "Latitude": 41.12143999999999977035258780233561992645263671875,
            "Longitude": 42.72731999999999885631041252054274082183837890625,
            "NaturalName": "Abaza",
            "Ctry": "Türkiye (Turkey)",
            "Population": 14000,
            "Continent": "Asia",
            "PeopleID3": 10125,
            "ROG3": "TU"
        },
        {
            "PrimaryLanguageName": "Abaza",
            "BibleStatus": 3,
            "Latitude": 44.22167999999999921101334621198475360870361328125,
            "Longitude": 41.88951999999999742385625722818076610565185546875,
            "NaturalName": "Abaza",
            "Ctry": "Russia",
            "Population": 42000,
            "Continent": "Asia",
            "PeopleID3": 10125,
            "ROG3": "RS"
        },
        {
            "PrimaryLanguageName": "Arabic, Egyptian",
            "BibleStatus": 5,
            "Latitude": 30.492751999999999412693796330131590366363525390625,
            "Longitude": 31.567505000000000592308424529619514942169189453125,
            "NaturalName": "Arabized Abaza",
            "Ctry": "Egypt",
            "Population": 16000,
            "Continent": "Africa",
            "PeopleID3": 10125,
            "ROG3": "EG"
        },
        {
            "PrimaryLanguageName": "Bengali",
            "BibleStatus": 5,
            "Latitude": 22.99644424567890155230998061597347259521484375,
            "Longitude": 89.83624592038910350311198271811008453369140625,
            "NaturalName": "Abdul",
            "Ctry": "Bangladesh",
            "Population": 43000,
            "Continent": "Asia",
            "PeopleID3": 16152,
            "ROG3": "BG"
        },
        {
            "PrimaryLanguageName": "Urdu",
            "BibleStatus": 5,
            "Latitude": 25.05131172275120121639702119864523410797119140625,
            "Longitude": 84.2202372298985011411787127144634723663330078125,
            "NaturalName": "Abdul",
            "Ctry": "India",
            "Population": 41000,
            "Continent": "Asia",
            "PeopleID3": 16152,
            "ROG3": "IN"
        },
        {
            "PrimaryLanguageName": "Urdu",
            "BibleStatus": 5,
            "Latitude": 28.44244306484539919210874359123408794403076171875,
            "Longitude": 82.1754040922599955365512869320809841156005859375,
            "NaturalName": "Abdul",
            "Ctry": "Nepal",
            "Population": 1500,
            "Continent": "Asia",
            "PeopleID3": 16152,
            "ROG3": "NP"
        },
        {
            "PrimaryLanguageName": "Abe",
            "BibleStatus": 3,
            "Latitude": 5.91866999999999965353936204337514936923980712890625,
            "Longitude": -4.29089999999999971436182022443972527980804443359375,
            "NaturalName": "Abe",
            "Ctry": "Côte d'Ivoire",
            "Population": 309000,
            "Continent": "Africa",
            "PeopleID3": 10126,
            "ROG3": "IV"
        },
        {
            "PrimaryLanguageName": "Abidji",
            "BibleStatus": 4,
            "Latitude": 5.63731999999999988659737937268801033496856689453125,
            "Longitude": -4.5805600000000001870148480520583689212799072265625,
            "NaturalName": "Abidji",
            "Ctry": "Côte d'Ivoire",
            "Population": 98000,
            "Continent": "Africa",
            "PeopleID3": 10127,
            "ROG3": "IV"
        },
        {
            "PrimaryLanguageName": "Aneme Wake",
            "BibleStatus": 4,
            "Latitude": -9.7883700000000004592948243953287601470947265625,
            "Longitude": 148.50639000000001033185981214046478271484375,
            "NaturalName": "Abie",
            "Ctry": "Papua New Guinea",
            "Population": 1600,
            "Continent": "Australia",
            "PeopleID3": 10128,
            "ROG3": "PP"
        },
        {
            "PrimaryLanguageName": "Abkhaz",
            "BibleStatus": 4,
            "Latitude": 43.2287000000000034560798667371273040771484375,
            "Longitude": 40.86397000000000190311766345985233783721923828125,
            "NaturalName": "Abkhaz",
            "Ctry": "Georgia",
            "Population": 900,
            "Continent": "Europe",
            "PeopleID3": 10130,
            "ROG3": "GG"
        },
        {
            "PrimaryLanguageName": "Abkhaz",
            "BibleStatus": 4,
            "Latitude": 50.09658400000000000318323145620524883270263671875,
            "Longitude": 8.6843570000000003261675374233163893222808837890625,
            "NaturalName": "Abkhaz",
            "Ctry": "Germany",
            "Population": 5100,
            "Continent": "Europe",
            "PeopleID3": 10130,
            "ROG3": "GM"
        },
        {
            "PrimaryLanguageName": "Abkhaz",
            "BibleStatus": 4,
            "Latitude": 43.41262100000000145882950164377689361572265625,
            "Longitude": 39.96628100000000216596163227222859859466552734375,
            "NaturalName": "Abkhaz",
            "Ctry": "Russia",
            "Population": 8200,
            "Continent": "Asia",
            "PeopleID3": 10130,
            "ROG3": "RS"
        },
        {
            "PrimaryLanguageName": "Abkhaz",
            "BibleStatus": 4,
            "Latitude": 33.53373400000000259524313150905072689056396484375,
            "Longitude": 36.33356400000000263617039308883249759674072265625,
            "NaturalName": "Abkhaz",
            "Ctry": "Syria",
            "Population": 6500,
            "Continent": "Asia",
            "PeopleID3": 10130,
            "ROG3": "SY"
        },
        {
            "PrimaryLanguageName": "Abkhaz",
            "BibleStatus": 4,
            "Latitude": 41.178986841769301463500596582889556884765625,
            "Longitude": 41.82068672571180201202878379262983798980712890625,
            "NaturalName": "Abkhaz",
            "Ctry": "Türkiye (Turkey)",
            "Population": 167000,
            "Continent": "Asia",
            "PeopleID3": 10130,
            "ROG3": "TU"
        },
        {
            "PrimaryLanguageName": "Abkhaz",
            "BibleStatus": 4,
            "Latitude": 50.51507099999999894635038799606263637542724609375,
            "Longitude": 30.616181999999998453176885959692299365997314453125,
            "NaturalName": "Abkhaz",
            "Ctry": "Ukraine",
            "Population": 1200,
            "Continent": "Europe",
            "PeopleID3": 10130,
            "ROG3": "UP"
        },
        {
            "PrimaryLanguageName": "French",
            "BibleStatus": 5,
            "Latitude": 46.2274000004097018745596869848668575286865234375,
            "Longitude": -72.6195999996403003251543850637972354888916015625,
            "NaturalName": "Abnaki-Penobscot",
            "Ctry": "Canada",
            "Population": 2800,
            "Continent": "North America",
            "PeopleID3": 10131,
            "ROG3": "CA"
        },
        {
            "PrimaryLanguageName": "English",
            "BibleStatus": 5,
            "Latitude": 45.0042973790207980755440075881779193878173828125,
            "Longitude": -68.637039959326699545272276736795902252197265625,
            "NaturalName": "Abnaki-Penobscot",
            "Ctry": "United States",
            "Population": 1300,
            "Continent": "North America",
            "PeopleID3": 10131,
            "ROG3": "US"
        },
        {
            "PrimaryLanguageName": "Bankon",
            "BibleStatus": 2,
            "Latitude": 4.37821999999999977859488353715278208255767822265625,
            "Longitude": 9.6498100000000004428102329256944358348846435546875,
            "NaturalName": "Abo",
            "Ctry": "Cameroon",
            "Population": 23000,
            "Continent": "Africa",
            "PeopleID3": 10132,
            "ROG3": "CM"
        },
        {
            "PrimaryLanguageName": "Abon",
            "BibleStatus": 1,
            "Latitude": 6.9032099999999996242650013300590217113494873046875,
            "Longitude": 10.8626599999999999823785401531495153903961181640625,
            "NaturalName": "Abong",
            "Ctry": "Nigeria",
            "Population": 2200,
            "Continent": "Africa",
            "PeopleID3": 10133,
            "ROG3": "NI"
        },
        {
            "PrimaryLanguageName": "Adi",
            "BibleStatus": 5,
            "Latitude": 26.794016182695099104194014216773211956024169921875,
            "Longitude": 93.3877434326295059463518555276095867156982421875,
            "NaturalName": "Abor",
            "Ctry": "India",
            "Population": 1900,
            "Continent": "Asia",
            "PeopleID3": 21369,
            "ROG3": "IN"
        },
        {
            "PrimaryLanguageName": "Kriol",
            "BibleStatus": 5,
            "Latitude": -18.13500000034969872331203077919781208038330078125,
            "Longitude": 137.66900000045001206672168336808681488037109375,
            "NaturalName": "Aboriginal Creole",
            "Ctry": "Australia",
            "Population": 7500,
            "Continent": "Australia",
            "PeopleID3": 10134,
            "ROG3": "AS"
        },
        {
            "PrimaryLanguageName": "English",
            "BibleStatus": 5,
            "Latitude": -26.292499999875101224233731045387685298919677734375,
            "Longitude": 132.128299999744996284789522178471088409423828125,
            "NaturalName": "Detribalized Aboriginal",
            "Ctry": "Australia",
            "Population": 546000,
            "Continent": "Australia",
            "PeopleID3": 11539,
            "ROG3": "AS"
        },
        {
            "PrimaryLanguageName": "English",
            "BibleStatus": 5,
            "Latitude": -31.89877953364860019291882053948938846588134765625,
            "Longitude": 115.906119167566004080072161741554737091064453125,
            "NaturalName": "Southwest Aboriginal",
            "Ctry": "Australia",
            "Population": 11000,
            "Continent": "Australia",
            "PeopleID3": 18874,
            "ROG3": "AS"
        },
        {
            "PrimaryLanguageName": "Mararit",
            "BibleStatus": 2,
            "Latitude": 14.0381346442984007438781191012822091579437255859375,
            "Longitude": 21.758036152746200286856037564575672149658203125,
            "NaturalName": "Abu Sharib",
            "Ctry": "Chad",
            "Population": 93000,
            "Continent": "Africa",
            "PeopleID3": 10136,
            "ROG3": "CD"
        },
        {
            "PrimaryLanguageName": "Arabic, Sudanese",
            "BibleStatus": 4,
            "Latitude": 11.980000000000000426325641456060111522674560546875,
            "Longitude": 28.96000000000000085265128291212022304534912109375,
            "NaturalName": "Abu-Junuk",
            "Ctry": "Sudan",
            "Population": 9800,
            "Continent": "Africa",
            "PeopleID3": 22457,
            "ROG3": "SU"
        },
        {
            "PrimaryLanguageName": "Abua",
            "BibleStatus": 5,
            "Latitude": 4.81843999999999983430143402074463665485382080078125,
            "Longitude": 6.62882000000000015660361896152608096599578857421875,
            "NaturalName": "Abua",
            "Ctry": "Nigeria",
            "Population": 53000,
            "Continent": "Africa",
            "PeopleID3": 10137,
            "ROG3": "NI"
        },
        {
            "PrimaryLanguageName": "Abui",
            "BibleStatus": 2,
            "Latitude": -8.3107799999999993900701156235300004482269287109375,
            "Longitude": 124.593760000000003174136509187519550323486328125,
            "NaturalName": "Abui",
            "Ctry": "Indonesia",
            "Population": 29000,
            "Continent": "Asia",
            "PeopleID3": 10138,
            "ROG3": "ID"
        },
        {
            "PrimaryLanguageName": "Abun",
            "BibleStatus": 4,
            "Latitude": -0.62966999999999995196731106261722743511199951171875,
            "Longitude": 132.377150000000000318323145620524883270263671875,
            "NaturalName": "Abun",
            "Ctry": "Indonesia",
            "Population": 12000,
            "Continent": "Asia",
            "PeopleID3": 10139,
            "ROG3": "ID"
        },
        {
            "PrimaryLanguageName": "Abure",
            "BibleStatus": 3,
            "Latitude": 5.266600000000000392219590139575302600860595703125,
            "Longitude": -3.576859999999999928377292235381901264190673828125,
            "NaturalName": "Abure",
            "Ctry": "Côte d'Ivoire",
            "Population": 107000,
            "Continent": "Africa",
            "PeopleID3": 10141,
            "ROG3": "IV"
        },
        {
            "PrimaryLanguageName": "French",
            "BibleStatus": 5,
            "Latitude": 46.3042999997451971694317762739956378936767578125,
            "Longitude": -66.366799999920004893283476121723651885986328125,
            "NaturalName": "Cajun Acadian",
            "Ctry": "Canada",
            "Population": 30000,
            "Continent": "North America",
            "PeopleID3": 19005,
            "ROG3": "CA"
        },
        {
            "PrimaryLanguageName": "Aceh",
            "BibleStatus": 5,
            "Latitude": 3.64341999999999988091303748660720884799957275390625,
            "Longitude": 97.0547100000000000363797880709171295166015625,
            "NaturalName": "Acehnese",
            "Ctry": "Indonesia",
            "Population": 4024000,
            "Continent": "Asia",
            "PeopleID3": 10144,
            "ROG3": "ID"
        },
        {
            "PrimaryLanguageName": "Malay",
            "BibleStatus": 5,
            "Latitude": 3.03441999999999989512389220180921256542205810546875,
            "Longitude": 101.600945999999993318851920776069164276123046875,
            "NaturalName": "Acehnese",
            "Ctry": "Malaysia",
            "Population": 90000,
            "Continent": "Asia",
            "PeopleID3": 10144,
            "ROG3": "MY"
        },
        {
            "PrimaryLanguageName": "Achagua",
            "BibleStatus": 4,
            "Latitude": 4.3739299999999996515498423832468688488006591796875,
            "Longitude": -72.1965500000000020008883439004421234130859375,
            "NaturalName": "Achagua",
            "Ctry": "Colombia",
            "Population": 1000,
            "Continent": "South America",
            "PeopleID3": 10145,
            "ROG3": "CO"
        },
        {
            "PrimaryLanguageName": "Achang",
            "BibleStatus": 5,
            "Latitude": 24.404923922101300348685981589369475841522216796875,
            "Longitude": 97.7847670491598961461932049132883548736572265625,
            "NaturalName": "Achang",
            "Ctry": "China",
            "Population": 34000,
            "Continent": "Asia",
            "PeopleID3": 10146,
            "ROG3": "CH"
        },
        {
            "PrimaryLanguageName": "Achang",
            "BibleStatus": 5,
            "Latitude": 24.40347417899020143750021816231310367584228515625,
            "Longitude": 97.87165561431510241163778118789196014404296875,
            "NaturalName": "Achang",
            "Ctry": "China",
            "Population": 7500,
            "Continent": "Asia",
            "PeopleID3": 18384,
            "ROG3": "CH"
        },
        {
            "PrimaryLanguageName": "Achang",
            "BibleStatus": 5,
            "Latitude": 24.261399999810098648822531686164438724517822265625,
            "Longitude": 97.6696400001857938377725076861679553985595703125,
            "NaturalName": "Achang, Maingtha",
            "Ctry": "Myanmar (Burma)",
            "Population": 39000,
            "Continent": "Asia",
            "PeopleID3": 10146,
            "ROG3": "BM"
        },
        {
            "PrimaryLanguageName": "Ache",
            "BibleStatus": 4,
            "Latitude": -25.5901199999999988676790962927043437957763671875,
            "Longitude": -56.4793599999999997862687450833618640899658203125,
            "NaturalName": "Ache",
            "Ctry": "Paraguay",
            "Population": 1900,
            "Continent": "South America",
            "PeopleID3": 10147,
            "ROG3": "PA"
        },
        {
            "PrimaryLanguageName": "Acheron",
            "BibleStatus": 2,
            "Latitude": 10.8860499999999991160848367144353687763214111328125,
            "Longitude": 30.318619999999999237161318887956440448760986328125,
            "NaturalName": "Acheron",
            "Ctry": "Sudan",
            "Population": 27000,
            "Continent": "Africa",
            "PeopleID3": 18804,
            "ROG3": "SU"
        },
        {
            "PrimaryLanguageName": "Achi",
            "BibleStatus": 5,
            "Latitude": 15.1719799999999995776533978641964495182037353515625,
            "Longitude": -90.6955899999999957117324811406433582305908203125,
            "NaturalName": "Achi, Cubulco",
            "Ctry": "Guatemala",
            "Population": 82000,
            "Continent": "North America",
            "PeopleID3": 11442,
            "ROG3": "GT"
        },
        {
            "PrimaryLanguageName": "Achi",
            "BibleStatus": 5,
            "Latitude": 15.07994000000000056616045185364782810211181640625,
            "Longitude": -90.3490100000000069258021540008485317230224609375,
            "NaturalName": "Achi, Rabinal",
            "Ctry": "Guatemala",
            "Population": 82000,
            "Continent": "North America",
            "PeopleID3": 14510,
            "ROG3": "GT"
        },
        {
            "PrimaryLanguageName": "Acipa, Eastern",
            "BibleStatus": 2,
            "Latitude": 10.669869999999999521378413191996514797210693359375,
            "Longitude": 5.98960999999999987863930073217488825321197509765625,
            "NaturalName": "Achipawa",
            "Ctry": "Nigeria",
            "Population": 21000,
            "Continent": "Africa",
            "PeopleID3": 10148,
            "ROG3": "NI"
        },
        {
            "PrimaryLanguageName": "Acholi",
            "BibleStatus": 5,
            "Latitude": 3.55160504543647004283002388547174632549285888671875,
            "Longitude": 32.19251520031620117379134171642363071441650390625,
            "NaturalName": "Acholi, Shuli",
            "Ctry": "South Sudan",
            "Population": 79000,
            "Continent": "Africa",
            "PeopleID3": 10149,
            "ROG3": "OD"
        },
        {
            "PrimaryLanguageName": "Acholi",
            "BibleStatus": 5,
            "Latitude": 3.001090000000000035385028240852989256381988525390625,
            "Longitude": 32.64907000000000181216819328255951404571533203125,
            "NaturalName": "Acholi, Shuli",
            "Ctry": "Uganda",
            "Population": 2031000,
            "Continent": "Africa",
            "PeopleID3": 10149,
            "ROG3": "UG"
        },
        {
            "PrimaryLanguageName": "Achuar-Shiwiar",
            "BibleStatus": 4,
            "Latitude": -2.397959999999999869402245167293585836887359619140625,
            "Longitude": -77.3826600000000013324097380973398685455322265625,
            "NaturalName": "Achuar Jivaro",
            "Ctry": "Ecuador",
            "Population": 7400,
            "Continent": "South America",
            "PeopleID3": 10150,
            "ROG3": "EC"
        },
        {
            "PrimaryLanguageName": "Achuar-Shiwiar",
            "BibleStatus": 4,
            "Latitude": -3.1892399999999998527755451505072414875030517578125,
            "Longitude": -77.3642300000000062709659687243402004241943359375,
            "NaturalName": "Achuar Jivaro",
            "Ctry": "Peru",
            "Population": 400,
            "Continent": "South America",
            "PeopleID3": 10150,
            "ROG3": "PE"
        },
        {
            "PrimaryLanguageName": "English",
            "BibleStatus": 5,
            "Latitude": 41.09784999957779660917367436923086643218994140625,
            "Longitude": -121.190799999820001175976358354091644287109375,
            "NaturalName": "Achumawi",
            "Ctry": "United States",
            "Population": 1100,
            "Continent": "North America",
            "PeopleID3": 10151,
            "ROG3": "US"
        },
        {
            "PrimaryLanguageName": "Cicipu",
            "BibleStatus": 2,
            "Latitude": 10.9894300000000004757794158649630844593048095703125,
            "Longitude": 5.5757899999999995799271346186287701129913330078125,
            "NaturalName": "Acipanci",
            "Ctry": "Nigeria",
            "Population": 44000,
            "Continent": "Africa",
            "PeopleID3": 10152,
            "ROG3": "NI"
        },
        {
            "PrimaryLanguageName": "Punjabi, Eastern",
            "BibleStatus": 5,
            "Latitude": 31.82798138404690035940802772529423236846923828125,
            "Longitude": 76.1232351626352965467958711087703704833984375,
            "NaturalName": "Ad Dharmi",
            "Ctry": "India",
            "Population": 1229000,
            "Continent": "Asia",
            "PeopleID3": 16158,
            "ROG3": "IN"
        },
        {
            "PrimaryLanguageName": "Atauran",
            "BibleStatus": 2,
            "Latitude": -8.23019000000000033878677641041576862335205078125,
            "Longitude": 125.5844100000000054251358960755169391632080078125,
            "NaturalName": "Adabe",
            "Ctry": "Timor-Leste",
            "Population": 6100,
            "Continent": "Asia",
            "PeopleID3": 10153,
            "ROG3": "TT"
        },
        {
            "PrimaryLanguageName": "Adangbe",
            "BibleStatus": 3,
            "Latitude": 6.3698899999999998300381776061840355396270751953125,
            "Longitude": 0.76327000000000000401456645704456605017185211181640625,
            "NaturalName": "Adan, Adangbe",
            "Ctry": "Ghana",
            "Population": 7700,
            "Continent": "Africa",
            "PeopleID3": 10154,
            "ROG3": "GH"
        },
        {
            "PrimaryLanguageName": "Adangbe",
            "BibleStatus": 3,
            "Latitude": 6.64472000000000040387249100604094564914703369140625,
            "Longitude": 0.69076000000000004064304448547773063182830810546875,
            "NaturalName": "Adan, Adangbe",
            "Ctry": "Togo",
            "Population": 5100,
            "Continent": "Africa",
            "PeopleID3": 10154,
            "ROG3": "TO"
        },
        {
            "PrimaryLanguageName": "Adang",
            "BibleStatus": 2,
            "Latitude": -8.189080000000000580939740757457911968231201171875,
            "Longitude": 124.452629999999999199644662439823150634765625,
            "NaturalName": "Adang",
            "Ctry": "Indonesia",
            "Population": 3200,
            "Continent": "Asia",
            "PeopleID3": 19539,
            "ROG3": "ID"
        },
        {
            "PrimaryLanguageName": "Adara",
            "BibleStatus": 3,
            "Latitude": 9.99696000000398043994209729135036468505859375,
            "Longitude": 7.4593299999795004140423770877532660961151123046875,
            "NaturalName": "Adara",
            "Ctry": "Nigeria",
            "Population": 414000,
            "Continent": "Africa",
            "PeopleID3": 12404,
            "ROG3": "NI"
        },
        {
            "PrimaryLanguageName": "Adele",
            "BibleStatus": 4,
            "Latitude": 8.1359300000000001062971932697109878063201904296875,
            "Longitude": 0.494159999999999988151699881200329400599002838134765625,
            "NaturalName": "Adele",
            "Ctry": "Ghana",
            "Population": 22000,
            "Continent": "Africa",
            "PeopleID3": 10156,
            "ROG3": "GH"
        },
        {
            "PrimaryLanguageName": "Adele",
            "BibleStatus": 4,
            "Latitude": 8.1951400000000003132072379230521619319915771484375,
            "Longitude": 0.736920000000000019468870959826745092868804931640625,
            "NaturalName": "Adele",
            "Ctry": "Togo",
            "Population": 42000,
            "Continent": "Africa",
            "PeopleID3": 10156,
            "ROG3": "TO"
        },
        {
            "PrimaryLanguageName": "Adi",
            "BibleStatus": 5,
            "Latitude": 27.032469999999999998863131622783839702606201171875,
            "Longitude": 90.188702000000006364643923006951808929443359375,
            "NaturalName": "Adi",
            "Ctry": "Bhutan",
            "Population": 2800,
            "Continent": "Asia",
            "PeopleID3": 18386,
            "ROG3": "BT"
        },
        {
            "PrimaryLanguageName": "Adi",
            "BibleStatus": 5,
            "Latitude": 28.4826631328972013079692260362207889556884765625,
            "Longitude": 92.542649710016092967634904198348522186279296875,
            "NaturalName": "Adi",
            "Ctry": "China",
            "Population": 1200,
            "Continent": "Asia",
            "PeopleID3": 18386,
            "ROG3": "CH"
        },
        {
            "PrimaryLanguageName": "Adi",
            "BibleStatus": 5,
            "Latitude": 28.2018469113236989187498693354427814483642578125,
            "Longitude": 95.827936396574699529082863591611385345458984375,
            "NaturalName": "Adi",
            "Ctry": "India",
            "Population": 82000,
            "Continent": "Asia",
            "PeopleID3": 18386,
            "ROG3": "IN"
        },
        {
            "PrimaryLanguageName": "Telugu",
            "BibleStatus": 5,
            "Latitude": 7.061580266340559575155566562898457050323486328125,
            "Longitude": 81.0447468660349983338164747692644596099853515625,
            "NaturalName": "Adi Andhra",
            "Ctry": "Sri Lanka",
            "Population": 800,
            "Continent": "Asia",
            "PeopleID3": 16162,
            "ROG3": "CE"
        },
        {
            "PrimaryLanguageName": "Telugu",
            "BibleStatus": 5,
            "Latitude": 17.35880490190420033513873931951820850372314453125,
            "Longitude": 82.310876972451296751387417316436767578125,
            "NaturalName": "Adi Andhra",
            "Ctry": "India",
            "Population": 363000,
            "Continent": "Asia",
            "PeopleID3": 16162,
            "ROG3": "IN"
        },
        {
            "PrimaryLanguageName": "Telugu",
            "BibleStatus": 5,
            "Latitude": 16.887979999999998881321516819298267364501953125,
            "Longitude": 81.395430000000004611138137988746166229248046875,
            "NaturalName": "Adi Andhra Christian",
            "Ctry": "India",
            "Population": 43000,
            "Continent": "Asia",
            "PeopleID3": 21610,
            "ROG3": "IN"
        },
        {
            "PrimaryLanguageName": "Tamil",
            "BibleStatus": 5,
            "Latitude": 12.2508784300784991927457667770795524120330810546875,
            "Longitude": 79.616260500579301151446998119354248046875,
            "NaturalName": "Adi Dravida",
            "Ctry": "India",
            "Population": 10144000,
            "Continent": "Asia",
            "PeopleID3": 16164,
            "ROG3": "IN"
        },
        {
            "PrimaryLanguageName": "Tamil",
            "BibleStatus": 5,
            "Latitude": 12.6848100000000005849187800777144730091094970703125,
            "Longitude": 79.9445099999999939655026537366211414337158203125,
            "NaturalName": "Adi Dravida Christian",
            "Ctry": "India",
            "Population": 778000,
            "Continent": "Asia",
            "PeopleID3": 21600,
            "ROG3": "IN"
        },
        {
            "PrimaryLanguageName": "Adi, Galo",
            "BibleStatus": 4,
            "Latitude": 28.795389690666798543361437623389065265655517578125,
            "Longitude": 94.9368586741440054765917011536657810211181640625,
            "NaturalName": "Gallong Adi",
            "Ctry": "India",
            "Population": 21000,
            "Continent": "Asia",
            "PeopleID3": 16165,
            "ROG3": "IN"
        },
        {
            "PrimaryLanguageName": "Kannada",
            "BibleStatus": 5,
            "Latitude": 12.6499926915450000564078436582349240779876708984375,
            "Longitude": 76.6621029740473005631429259665310382843017578125,
            "NaturalName": "Adi Karnataka",
            "Ctry": "India",
            "Population": 3509000,
            "Continent": "Asia",
            "PeopleID3": 16166,
            "ROG3": "IN"
        },
        {
            "PrimaryLanguageName": "Kannada",
            "BibleStatus": 5,
            "Latitude": 14.044859999999999899955582804977893829345703125,
            "Longitude": 75.249089999999995370671967975795269012451171875,
            "NaturalName": "Adi Karnataka Christian",
            "Ctry": "India",
            "Population": 207000,
            "Continent": "Asia",
            "PeopleID3": 21589,
            "ROG3": "IN"
        },
        {
            "PrimaryLanguageName": "Adi",
            "BibleStatus": 5,
            "Latitude": 27.974412794332199183600096148438751697540283203125,
            "Longitude": 94.9409115175903934868983924388885498046875,
            "NaturalName": "Minyong Adi",
            "Ctry": "India",
            "Population": 29000,
            "Continent": "Asia",
            "PeopleID3": 16167,
            "ROG3": "IN"
        },
        {
            "PrimaryLanguageName": "Adi",
            "BibleStatus": 5,
            "Latitude": 29.0456616579783002407566527836024761199951171875,
            "Longitude": 96.12786089871059402867103926837444305419921875,
            "NaturalName": "Padam Adi",
            "Ctry": "India",
            "Population": 16000,
            "Continent": "Asia",
            "PeopleID3": 16168,
            "ROG3": "IN"
        },
        {
            "PrimaryLanguageName": "Adi",
            "BibleStatus": 5,
            "Latitude": 28.62712318333370120626568677835166454315185546875,
            "Longitude": 95.78077828496179790818132460117340087890625,
            "NaturalName": "Pasi Adi",
            "Ctry": "India",
            "Population": 3600,
            "Continent": "Asia",
            "PeopleID3": 16169,
            "ROG3": "IN"
        },
        {
            "PrimaryLanguageName": "Adi",
            "BibleStatus": 5,
            "Latitude": 29.39999999999999857891452847979962825775146484375,
            "Longitude": 94.340000000000003410605131648480892181396484375,
            "NaturalName": "Adi Ramo",
            "Ctry": "China",
            "Population": 200,
            "Continent": "Asia",
            "PeopleID3": 17939,
            "ROG3": "CH"
        },
        {
            "PrimaryLanguageName": "Adi",
            "BibleStatus": 5,
            "Latitude": 28.7684076931572008106741122901439666748046875,
            "Longitude": 94.6038087617771026316404459066689014434814453125,
            "NaturalName": "Ramo Adi",
            "Ctry": "India",
            "Population": 1600,
            "Continent": "Asia",
            "PeopleID3": 17939,
            "ROG3": "IN"
        },
        {
            "PrimaryLanguageName": "Nepali",
            "BibleStatus": 5,
            "Latitude": 28.92525321244070113380075781606137752532958984375,
            "Longitude": 80.7528181626179986096758511848747730255126953125,
            "NaturalName": "Adibasi Janajati",
            "Ctry": "Nepal",
            "Population": 1300,
            "Continent": "Asia",
            "PeopleID3": 20054,
            "ROG3": "NP"
        },
        {
            "PrimaryLanguageName": "Malayalam",
            "BibleStatus": 5,
            "Latitude": 12.1084061157896005767042879597283899784088134765625,
            "Longitude": 76.2345031034730027386103756725788116455078125,
            "NaturalName": "Adiyan",
            "Ctry": "India",
            "Population": 19000,
            "Continent": "Asia",
            "PeopleID3": 16171,
            "ROG3": "IN"
        },
        {
            "PrimaryLanguageName": "Abu",
            "BibleStatus": 3,
            "Latitude": -4.23857999999999979223730406374670565128326416015625,
            "Longitude": 144.49574999999998681232682429254055023193359375,
            "NaturalName": "Adjora",
            "Ctry": "Papua New Guinea",
            "Population": 8200,
            "Continent": "Australia",
            "PeopleID3": 10159,
            "ROG3": "PP"
        },
        {
            "PrimaryLanguageName": "Adioukrou",
            "BibleStatus": 4,
            "Latitude": 5.3781800000000004047251422889530658721923828125,
            "Longitude": -4.525430000000000063664629124104976654052734375,
            "NaturalName": "Adjoukrou",
            "Ctry": "Côte d'Ivoire",
            "Population": 180000,
            "Continent": "Africa",
            "PeopleID3": 10162,
            "ROG3": "IV"
        },
        {
            "PrimaryLanguageName": "English",
            "BibleStatus": 5,
            "Latitude": -30.58105199999999967985786497592926025390625,
            "Longitude": 138.979477000000002817614586092531681060791015625,
            "NaturalName": "Adnyamathanha",
            "Ctry": "Australia",
            "Population": 200,
            "Continent": "Australia",
            "PeopleID3": 20718,
            "ROG3": "AS"
        },
        {
            "PrimaryLanguageName": "Adonara",
            "BibleStatus": 3,
            "Latitude": -8.3446200000000008145661922753788530826568603515625,
            "Longitude": 123.154460000000000263753463514149188995361328125,
            "NaturalName": "Adonara",
            "Ctry": "Indonesia",
            "Population": 117000,
            "Continent": "Asia",
            "PeopleID3": 19289,
            "ROG3": "ID"
        },
        {
            "PrimaryLanguageName": "Chinese, Mandarin",
            "BibleStatus": 5,
            "Latitude": 25.93135964414290128843276761472225189208984375,
            "Longitude": 106.284227691132997506429092027246952056884765625,
            "NaturalName": "Adu",
            "Ctry": "China",
            "Population": 8200,
            "Continent": "Asia",
            "PeopleID3": 18387,
            "ROG3": "CH"
        },
        {
            "PrimaryLanguageName": "Aduge",
            "BibleStatus": 2,
            "Latitude": 7.63520000000000020889956431346945464611053466796875,
            "Longitude": 6.11493999999999982009057930554263293743133544921875,
            "NaturalName": "Aduge",
            "Ctry": "Nigeria",
            "Population": 4100,
            "Continent": "Africa",
            "PeopleID3": 10160,
            "ROG3": "NI"
        },
        {
            "PrimaryLanguageName": "Adyghe",
            "BibleStatus": 4,
            "Latitude": 30.0151290000000017244019545614719390869140625,
            "Longitude": 31.253906000000000631189323030412197113037109375,
            "NaturalName": "Adyghe",
            "Ctry": "Egypt",
            "Population": 15000,
            "Continent": "Africa",
            "PeopleID3": 10161,
            "ROG3": "EG"
        },
        {
            "PrimaryLanguageName": "Adyghe",
            "BibleStatus": 4,
            "Latitude": 52.49784199999999856345311854965984821319580078125,
            "Longitude": 13.4280729999999994817017068271525204181671142578125,
            "NaturalName": "Adyghe",
            "Ctry": "Germany",
            "Population": 2100,
            "Continent": "Europe",
            "PeopleID3": 10161,
            "ROG3": "GM"
        },
        {
            "PrimaryLanguageName": "Adyghe",
            "BibleStatus": 4,
            "Latitude": 32.69225999999999743295120424591004848480224609375,
            "Longitude": 35.4954699999999974124875734560191631317138671875,
            "NaturalName": "Adyghe",
            "Ctry": "Israel",
            "Population": 4200,
            "Continent": "Asia",
            "PeopleID3": 10161,
            "ROG3": "IS"
        },
        {
            "PrimaryLanguageName": "Adyghe",
            "BibleStatus": 4,
            "Latitude": 34.36674000000000006593836587853729724884033203125,
            "Longitude": 45.01019000000000147565515362657606601715087890625,
            "NaturalName": "Adyghe",
            "Ctry": "Iraq",
            "Population": 45000,
            "Continent": "Asia",
            "PeopleID3": 10161,
            "ROG3": "IZ"
        },
        {
            "PrimaryLanguageName": "Adyghe",
            "BibleStatus": 4,
            "Latitude": 32.30991000000000212821760214865207672119140625,
            "Longitude": 36.3038099999999985811882652342319488525390625,
            "NaturalName": "Adyghe",
            "Ctry": "Jordan",
            "Population": 103000,
            "Continent": "Asia",
            "PeopleID3": 10161,
            "ROG3": "JO"
        },
        {
            "PrimaryLanguageName": "Adyghe",
            "BibleStatus": 4,
            "Latitude": 44.79121500000000111185727291740477085113525390625,
            "Longitude": 20.49511199999999888632373767904937267303466796875,
            "NaturalName": "Adyghe",
            "Ctry": "Serbia",
            "Population": 2100,
            "Continent": "Europe",
            "PeopleID3": 10161,
            "ROG3": "RI"
        },
        {
            "PrimaryLanguageName": "Adyghe",
            "BibleStatus": 4,
            "Latitude": 32.53649999999999664623828721232712268829345703125,
            "Longitude": 36.5074800000000010413714335300028324127197265625,
            "NaturalName": "Adyghe",
            "Ctry": "Syria",
            "Population": 29000,
            "Continent": "Asia",
            "PeopleID3": 10161,
            "ROG3": "SY"
        },
        {
            "PrimaryLanguageName": "Adyghe",
            "BibleStatus": 4,
            "Latitude": 38.66660100043579717521424754522740840911865234375,
            "Longitude": 35.50812699996109955691281356848776340484619140625,
            "NaturalName": "Adyghe",
            "Ctry": "Türkiye (Turkey)",
            "Population": 359000,
            "Continent": "Asia",
            "PeopleID3": 10161,
            "ROG3": "TU"
        },
        {
            "PrimaryLanguageName": "Adyghe",
            "BibleStatus": 4,
            "Latitude": 43.0584492569276022777557955123484134674072265625,
            "Longitude": -76.1457073943806932447841973043978214263916015625,
            "NaturalName": "Adyghe",
            "Ctry": "United States",
            "Population": 9300,
            "Continent": "North America",
            "PeopleID3": 10161,
            "ROG3": "US"
        },
        {
            "PrimaryLanguageName": "Adyghe",
            "BibleStatus": 4,
            "Latitude": 31.533094999999999430428943014703691005706787109375,
            "Longitude": 35.07992300000000085447027231566607952117919921875,
            "NaturalName": "Adyghe",
            "Ctry": "West Bank / Gaza",
            "Population": 1000,
            "Continent": "Asia",
            "PeopleID3": 10161,
            "ROG3": "WE"
        },
        {
            "PrimaryLanguageName": "Adyghe",
            "BibleStatus": 4,
            "Latitude": 44.5947186413522018710864358581602573394775390625,
            "Longitude": 40.11391735580129846994168474338948726654052734375,
            "NaturalName": "Adyghe",
            "Ctry": "Russia",
            "Population": 111000,
            "Continent": "Asia",
            "PeopleID3": 10161,
            "ROG3": "RS"
        },
        {
            "PrimaryLanguageName": "Adzera",
            "BibleStatus": 4,
            "Latitude": -6.33711700000000011101519703515805304050445556640625,
            "Longitude": 146.237151000000011435986380092799663543701171875,
            "NaturalName": "Adzera",
            "Ctry": "Papua New Guinea",
            "Population": 56000,
            "Continent": "Australia",
            "PeopleID3": 19641,
            "ROG3": "PP"
        },
        {
            "PrimaryLanguageName": "Aeka",
            "BibleStatus": 1,
            "Latitude": -8.58015999999999934289007796905934810638427734375,
            "Longitude": 147.961909999999988940544426441192626953125,
            "NaturalName": "Aeka",
            "Ctry": "Papua New Guinea",
            "Population": 5700,
            "Continent": "Australia",
            "PeopleID3": 18930,
            "ROG3": "PP"
        },
        {
            "PrimaryLanguageName": "French",
            "BibleStatus": 5,
            "Latitude": -21.072350000000000136424205265939235687255859375,
            "Longitude": 164.86817999999999528881744481623172760009765625,
            "NaturalName": "Aeke",
            "Ctry": "New Caledonia",
            "Population": 400,
            "Continent": "Oceania",
            "PeopleID3": 10164,
            "ROG3": "NC"
        },
        {
            "PrimaryLanguageName": "Afar",
            "BibleStatus": 5,
            "Latitude": 11.8062500000000003552713678800500929355621337890625,
            "Longitude": 42.52214000000000027057467377744615077972412109375,
            "NaturalName": "Afar",
            "Ctry": "Djibouti",
            "Population": 334000,
            "Continent": "Africa",
            "PeopleID3": 11486,
            "ROG3": "DJ"
        },
        {
            "PrimaryLanguageName": "Afar",
            "BibleStatus": 5,
            "Latitude": 13.6669800000000005724132279283367097377777099609375,
            "Longitude": 41.69362000000000278987499768845736980438232421875,
            "NaturalName": "Afar",
            "Ctry": "Eritrea",
            "Population": 296000,
            "Continent": "Africa",
            "PeopleID3": 11486,
            "ROG3": "ER"
        },
        {
            "PrimaryLanguageName": "Afar",
            "BibleStatus": 5,
            "Latitude": 11.67484999999999928377292235381901264190673828125,
            "Longitude": 40.85520000000000351292328559793531894683837890625,
            "NaturalName": "Afar",
            "Ctry": "Ethiopia",
            "Population": 2155000,
            "Continent": "Africa",
            "PeopleID3": 11486,
            "ROG3": "ET"
        },
        {
            "PrimaryLanguageName": "Dari",
            "BibleStatus": 5,
            "Latitude": 31.1562100000000015143086784519255161285400390625,
            "Longitude": 62.14612000000000335830918629653751850128173828125,
            "NaturalName": "Afghan Tajik",
            "Ctry": "Afghanistan",
            "Population": 11670000,
            "Continent": "Asia",
            "PeopleID3": 14372,
            "ROG3": "AF"
        },
        {
            "PrimaryLanguageName": "Dari",
            "BibleStatus": 5,
            "Latitude": 31.04347200000000128738975035957992076873779296875,
            "Longitude": 61.49378300000000052705217967741191387176513671875,
            "NaturalName": "Afghan Tajik",
            "Ctry": "Iran",
            "Population": 425000,
            "Continent": "Asia",
            "PeopleID3": 14372,
            "ROG3": "IR"
        },
        {
            "PrimaryLanguageName": "Dari",
            "BibleStatus": 5,
            "Latitude": 45,
            "Longitude": 76,
            "NaturalName": "Afghan Tajik",
            "Ctry": "Kazakhstan",
            "Population": 800,
            "Continent": "Asia",
            "PeopleID3": 14372,
            "ROG3": "KZ"
        },
        {
            "PrimaryLanguageName": "Dari",
            "BibleStatus": 5,
            "Latitude": 50.4200000000000017053025658242404460906982421875,
            "Longitude": 30.53999999999999914734871708787977695465087890625,
            "NaturalName": "Afghan Tajik",
            "Ctry": "Ukraine",
            "Population": 900,
            "Continent": "Europe",
            "PeopleID3": 14372,
            "ROG3": "UP"
        },
        {
            "PrimaryLanguageName": "Dari",
            "BibleStatus": 5,
            "Latitude": -37.8078670000000016671037883497774600982666015625,
            "Longitude": 144.95157499999999117790139280259609222412109375,
            "NaturalName": "Afghan",
            "Ctry": "Australia",
            "Population": 33000,
            "Continent": "Australia",
            "PeopleID3": 19314,
            "ROG3": "AS"
        },
        {
            "PrimaryLanguageName": "Dari",
            "BibleStatus": 5,
            "Latitude": 48.28274400000000099453245638869702816009521484375,
            "Longitude": 16.21958000000000055251803132705390453338623046875,
            "NaturalName": "Afghan",
            "Ctry": "Austria",
            "Population": 44000,
            "Continent": "Europe",
            "PeopleID3": 19314,
            "ROG3": "AU"
        },
        {
            "PrimaryLanguageName": "Dari",
            "BibleStatus": 5,
            "Latitude": 51.2000000000000028421709430404007434844970703125,
            "Longitude": 4.54999999999999982236431605997495353221893310546875,
            "NaturalName": "Afghan",
            "Ctry": "Belgium",
            "Population": 26000,
            "Continent": "Europe",
            "PeopleID3": 19314,
            "ROG3": "BE"
        },
        {
            "PrimaryLanguageName": "Dari",
            "BibleStatus": 5,
            "Latitude": 43.783400000000000318323145620524883270263671875,
            "Longitude": -79.2879999999999967030817060731351375579833984375,
            "NaturalName": "Afghan",
            "Ctry": "Canada",
            "Population": 60000,
            "Continent": "North America",
            "PeopleID3": 19314,
            "ROG3": "CA"
        },
        {
            "PrimaryLanguageName": "Dari",
            "BibleStatus": 5,
            "Latitude": 55.722453999999999041392584331333637237548828125,
            "Longitude": 12.464524000000000825139068183489143848419189453125,
            "NaturalName": "Afghan",
            "Ctry": "Denmark",
            "Population": 20000,
            "Continent": "Europe",
            "PeopleID3": 19314,
            "ROG3": "DA"
        },
        {
            "PrimaryLanguageName": "Dari",
            "BibleStatus": 5,
            "Latitude": 50.64399999999999835154085303656756877899169921875,
            "Longitude": 9.16499999999999914734871708787977695465087890625,
            "NaturalName": "Afghan",
            "Ctry": "Germany",
            "Population": 295000,
            "Continent": "Europe",
            "PeopleID3": 19314,
            "ROG3": "GM"
        },
        {
            "PrimaryLanguageName": "Dari",
            "BibleStatus": 5,
            "Latitude": 52.3070000000000021600499167107045650482177734375,
            "Longitude": 4.76700000000000034816594052244909107685089111328125,
            "NaturalName": "Afghan",
            "Ctry": "Netherlands",
            "Population": 53000,
            "Continent": "Europe",
            "PeopleID3": 19314,
            "ROG3": "NL"
        },
        {
            "PrimaryLanguageName": "Dari",
            "BibleStatus": 5,
            "Latitude": -36.87257100000000065165295382030308246612548828125,
            "Longitude": 174.75398400000000265208655036985874176025390625,
            "NaturalName": "Afghan",
            "Ctry": "New Zealand",
            "Population": 3900,
            "Continent": "Oceania",
            "PeopleID3": 19314,
            "ROG3": "NZ"
        },
        {
            "PrimaryLanguageName": "Dari",
            "BibleStatus": 5,
            "Latitude": 46.93599999999999994315658113919198513031005859375,
            "Longitude": 7.4320000000000003836930773104541003704071044921875,
            "NaturalName": "Afghan",
            "Ctry": "Switzerland",
            "Population": 19000,
            "Continent": "Europe",
            "PeopleID3": 19314,
            "ROG3": "SZ"
        },
        {
            "PrimaryLanguageName": "Dari",
            "BibleStatus": 5,
            "Latitude": 41.00800000000000267164068645797669887542724609375,
            "Longitude": 28.97800000000000153477230924181640148162841796875,
            "NaturalName": "Afghan",
            "Ctry": "Türkiye (Turkey)",
            "Population": 185000,
            "Continent": "Asia",
            "PeopleID3": 19314,
            "ROG3": "TU"
        },
        {
            "PrimaryLanguageName": "Dari",
            "BibleStatus": 5,
            "Latitude": 51.50999999999999801048033987171947956085205078125,
            "Longitude": -0.14000000000000001332267629550187848508358001708984375,
            "NaturalName": "Afghan",
            "Ctry": "United Kingdom",
            "Population": 78000,
            "Continent": "Europe",
            "PeopleID3": 19314,
            "ROG3": "UK"
        },
        {
            "PrimaryLanguageName": "Dari",
            "BibleStatus": 5,
            "Latitude": 37.7566240000000021836967789568006992340087890625,
            "Longitude": -122.1680329999999941037458484061062335968017578125,
            "NaturalName": "Afghan",
            "Ctry": "United States",
            "Population": 102000,
            "Continent": "North America",
            "PeopleID3": 19314,
            "ROG3": "US"
        },
        {
            "PrimaryLanguageName": "Afitti",
            "BibleStatus": 2,
            "Latitude": 12.431589999999999918145476840436458587646484375,
            "Longitude": 30.76247000000000042518877307884395122528076171875,
            "NaturalName": "Afitti",
            "Ctry": "Sudan",
            "Population": 5500,
            "Continent": "Africa",
            "PeopleID3": 10167,
            "ROG3": "SU"
        },
        {
            "PrimaryLanguageName": "Izere",
            "BibleStatus": 4,
            "Latitude": 9.890579999999999927240423858165740966796875,
            "Longitude": 9.080799999999999982946974341757595539093017578125,
            "NaturalName": "Afizere, Izere",
            "Ctry": "Nigeria",
            "Population": 104000,
            "Continent": "Africa",
            "PeopleID3": 12328,
            "ROG3": "NI"
        },
        {
            "PrimaryLanguageName": "English",
            "BibleStatus": 5,
            "Latitude": 39.5974849297893030097839073278009891510009765625,
            "Longitude": -97.070485504891195205345866270363330841064453125,
            "NaturalName": "African-American",
            "Ctry": "United States",
            "Population": 41130000,
            "Continent": "North America",
            "PeopleID3": 19530,
            "ROG3": "US"
        },
        {
            "PrimaryLanguageName": "Afrikaans",
            "BibleStatus": 5,
            "Latitude": -15.254118055903600037481737672351300716400146484375,
            "Longitude": 13.570933793559699864772483124397695064544677734375,
            "NaturalName": "Afrikaner",
            "Ctry": "Angola",
            "Population": 2400,
            "Continent": "Africa",
            "PeopleID3": 10168,
            "ROG3": "AO"
        },
        {
            "PrimaryLanguageName": "Afrikaans",
            "BibleStatus": 5,
            "Latitude": -32.9027389999999968495103530585765838623046875,
            "Longitude": 149.782181000000008452843758277595043182373046875,
            "NaturalName": "Afrikaner",
            "Ctry": "Australia",
            "Population": 48000,
            "Continent": "Australia",
            "PeopleID3": 10168,
            "ROG3": "AS"
        },
        {
            "PrimaryLanguageName": "Afrikaans",
            "BibleStatus": 5,
            "Latitude": -23.10898999999999858800947549752891063690185546875,
            "Longitude": 22.140100000000000335376171278767287731170654296875,
            "NaturalName": "Afrikaner",
            "Ctry": "Botswana",
            "Population": 11000,
            "Continent": "Africa",
            "PeopleID3": 10168,
            "ROG3": "BC"
        },
        {
            "PrimaryLanguageName": "Afrikaans",
            "BibleStatus": 5,
            "Latitude": 43.7000000000000028421709430404007434844970703125,
            "Longitude": -79.3799999999999954525264911353588104248046875,
            "NaturalName": "Afrikaner",
            "Ctry": "Canada",
            "Population": 11000,
            "Continent": "North America",
            "PeopleID3": 10168,
            "ROG3": "CA"
        },
        {
            "PrimaryLanguageName": "Afrikaans",
            "BibleStatus": 5,
            "Latitude": -29.304558793653399106915458105504512786865234375,
            "Longitude": 27.480047400067501683906812104396522045135498046875,
            "NaturalName": "Afrikaner",
            "Ctry": "Lesotho",
            "Population": 2500,
            "Continent": "Africa",
            "PeopleID3": 10168,
            "ROG3": "LT"
        },
        {
            "PrimaryLanguageName": "Afrikaans",
            "BibleStatus": 5,
            "Latitude": -15.048069999999999168949216254986822605133056640625,
            "Longitude": 34.93209999999999837427822058089077472686767578125,
            "NaturalName": "Afrikaner",
            "Ctry": "Malawi",
            "Population": 4000,
            "Continent": "Africa",
            "PeopleID3": 10168,
            "ROG3": "MI"
        },
        {
            "PrimaryLanguageName": "Afrikaans",
            "BibleStatus": 5,
            "Latitude": 52.3548219999999986384864314459264278411865234375,
            "Longitude": 4.8913419999999998566408976330421864986419677734375,
            "NaturalName": "Afrikaner",
            "Ctry": "Netherlands",
            "Population": 29000,
            "Continent": "Europe",
            "PeopleID3": 10168,
            "ROG3": "NL"
        },
        {
            "PrimaryLanguageName": "Afrikaans",
            "BibleStatus": 5,
            "Latitude": -36.8579050000000023601387511007487773895263671875,
            "Longitude": 174.74165199999998776547727175056934356689453125,
            "NaturalName": "Afrikaner",
            "Ctry": "New Zealand",
            "Population": 1400,
            "Continent": "Oceania",
            "PeopleID3": 10168,
            "ROG3": "NZ"
        },
        {
            "PrimaryLanguageName": "Afrikaans",
            "BibleStatus": 5,
            "Latitude": -26.2471341273381000291919917799532413482666015625,
            "Longitude": 27.862625750577901584392748191021382808685302734375,
            "NaturalName": "Afrikaner",
            "Ctry": "South Africa",
            "Population": 4018000,
            "Continent": "Africa",
            "PeopleID3": 10168,
            "ROG3": "SF"
        },
        {
            "PrimaryLanguageName": "Afrikaans",
            "BibleStatus": 5,
            "Latitude": 51.37688048324770306862774305045604705810546875,
            "Longitude": -0.142372836737024999198553132373490370810031890869140625,
            "NaturalName": "Afrikaner",
            "Ctry": "United Kingdom",
            "Population": 250000,
            "Continent": "Europe",
            "PeopleID3": 10168,
            "ROG3": "UK"
        },
        {
            "PrimaryLanguageName": "Afrikaans",
            "BibleStatus": 5,
            "Latitude": 34.00606151652569764110012329183518886566162109375,
            "Longitude": -118.320837171297995382701628841459751129150390625,
            "NaturalName": "Afrikaner",
            "Ctry": "United States",
            "Population": 24000,
            "Continent": "North America",
            "PeopleID3": 10168,
            "ROG3": "US"
        },
        {
            "PrimaryLanguageName": "Afrikaans",
            "BibleStatus": 5,
            "Latitude": -23.12576999998550064674418536014854907989501953125,
            "Longitude": 17.2635899996787003374265623278915882110595703125,
            "NaturalName": "Afrikaner",
            "Ctry": "Namibia",
            "Population": 78000,
            "Continent": "Africa",
            "PeopleID3": 10168,
            "ROG3": "WA"
        },
        {
            "PrimaryLanguageName": "Afrikaans",
            "BibleStatus": 5,
            "Latitude": -26.32845463087650017541818669997155666351318359375,
            "Longitude": 31.120338384808601261966032325290143489837646484375,
            "NaturalName": "Afrikaner",
            "Ctry": "Eswatini",
            "Population": 15000,
            "Continent": "Africa",
            "PeopleID3": 10168,
            "ROG3": "WZ"
        },
        {
            "PrimaryLanguageName": "Afrikaans",
            "BibleStatus": 5,
            "Latitude": -13.9047699999999991860022419132292270660400390625,
            "Longitude": 26.366299999999998959765434847213327884674072265625,
            "NaturalName": "Afrikaner",
            "Ctry": "Zambia",
            "Population": 114000,
            "Continent": "Africa",
            "PeopleID3": 10168,
            "ROG3": "ZA"
        },
        {
            "PrimaryLanguageName": "Afrikaans",
            "BibleStatus": 5,
            "Latitude": -19.06606000000000022964741219766438007354736328125,
            "Longitude": 29.109390000000001208491084980778396129608154296875,
            "NaturalName": "Afrikaner",
            "Ctry": "Zimbabwe",
            "Population": 104000,
            "Continent": "Africa",
            "PeopleID3": 10168,
            "ROG3": "ZI"
        },
        {
            "PrimaryLanguageName": "English",
            "BibleStatus": 5,
            "Latitude": 17.127976557272301505463474313728511333465576171875,
            "Longitude": -61.8296043701455033669844851829111576080322265625,
            "NaturalName": "Afro-Antiguan",
            "Ctry": "Antigua and Barbuda",
            "Population": 76000,
            "Continent": "North America",
            "PeopleID3": 10348,
            "ROG3": "AC"
        },
        {
            "PrimaryLanguageName": "English",
            "BibleStatus": 5,
            "Latitude": 43.43431100000000100180841400288045406341552734375,
            "Longitude": -80.477746999999993704477674327790737152099609375,
            "NaturalName": "Afro-Antiguan",
            "Ctry": "Canada",
            "Population": 1600,
            "Continent": "North America",
            "PeopleID3": 10348,
            "ROG3": "CA"
        },
        {
            "PrimaryLanguageName": "Spanish",
            "BibleStatus": 5,
            "Latitude": -34.63610451740949969234861782751977443695068359375,
            "Longitude": -58.48223696136670213263641926459968090057373046875,
            "NaturalName": "Afro-Argentine",
            "Ctry": "Argentina",
            "Population": 137000,
            "Continent": "South America",
            "PeopleID3": 19023,
            "ROG3": "AR"
        },
        {
            "PrimaryLanguageName": "Bahamas English Creole",
            "BibleStatus": 1,
            "Latitude": 24.705639999999998934754330548457801342010498046875,
            "Longitude": -78.0444600000000008321876521222293376922607421875,
            "NaturalName": "Afro-Bahamian",
            "Ctry": "Bahamas",
            "Population": 256000,
            "Continent": "North America",
            "PeopleID3": 19406,
            "ROG3": "BF"
        },
        {
            "PrimaryLanguageName": "English",
            "BibleStatus": 5,
            "Latitude": 32.276179999907100182099384255707263946533203125,
            "Longitude": -64.7850399997960977316324715502560138702392578125,
            "NaturalName": "Afro-Bermudan",
            "Ctry": "Bermuda",
            "Population": 39000,
            "Continent": "North America",
            "PeopleID3": 15919,
            "ROG3": "BD"
        },
        {
            "PrimaryLanguageName": "Spanish",
            "BibleStatus": 5,
            "Latitude": -24.8382730000000009340510587207973003387451171875,
            "Longitude": -65.409547000000003436070983298122882843017578125,
            "NaturalName": "Afro-Bolivian",
            "Ctry": "Argentina",
            "Population": 1300,
            "Continent": "South America",
            "PeopleID3": 19024,
            "ROG3": "AR"
        },
        {
            "PrimaryLanguageName": "Spanish",
            "BibleStatus": 5,
            "Latitude": -15.142484999882899643353084684349596500396728515625,
            "Longitude": -67.7383889999523063352171448059380054473876953125,
            "NaturalName": "Afro-Bolivian",
            "Ctry": "Bolivia",
            "Population": 24000,
            "Continent": "South America",
            "PeopleID3": 19024,
            "ROG3": "BL"
        },
        {
            "PrimaryLanguageName": "Spanish",
            "BibleStatus": 5,
            "Latitude": -34.6729399999999969850250636227428913116455078125,
            "Longitude": -58.3624760000000009085852070711553096771240234375,
            "NaturalName": "Afro-Caribbean",
            "Ctry": "Argentina",
            "Population": 2900,
            "Continent": "South America",
            "PeopleID3": 19214,
            "ROG3": "AR"
        },
        {
            "PrimaryLanguageName": "English",
            "BibleStatus": 5,
            "Latitude": 52.977477914974798522962373681366443634033203125,
            "Longitude": -100.9379015103010033271857537329196929931640625,
            "NaturalName": "Afro-Caribbean",
            "Ctry": "Canada",
            "Population": 113000,
            "Continent": "North America",
            "PeopleID3": 19214,
            "ROG3": "CA"
        },
        {
            "PrimaryLanguageName": "Spanish",
            "BibleStatus": 5,
            "Latitude": 18.938216341900901085182340466417372226715087890625,
            "Longitude": -70.1590422083217930548926233313977718353271484375,
            "NaturalName": "Afro-Dominican",
            "Ctry": "Dominican Republic",
            "Population": 1041000,
            "Continent": "North America",
            "PeopleID3": 11598,
            "ROG3": "DR"
        },
        {
            "PrimaryLanguageName": "Spanish",
            "BibleStatus": 5,
            "Latitude": -0.253675396402457009603637061445624567568302154541015625,
            "Longitude": -78.53820329084919649176299571990966796875,
            "NaturalName": "Afro-Ecuadorian",
            "Ctry": "Ecuador",
            "Population": 439000,
            "Continent": "South America",
            "PeopleID3": 10889,
            "ROG3": "EC"
        },
        {
            "PrimaryLanguageName": "Grenadian English Creole",
            "BibleStatus": 1,
            "Latitude": 43.6550399999999996225596987642347812652587890625,
            "Longitude": -79.39413500000000567524693906307220458984375,
            "NaturalName": "Afro-Grenadian",
            "Ctry": "Canada",
            "Population": 7800,
            "Continent": "North America",
            "PeopleID3": 19416,
            "ROG3": "CA"
        },
        {
            "PrimaryLanguageName": "Grenadian English Creole",
            "BibleStatus": 1,
            "Latitude": 12.156980000000000785576048656366765499114990234375,
            "Longitude": -61.65440000000000253521648119203746318817138671875,
            "NaturalName": "Afro-Grenadian",
            "Ctry": "Grenada",
            "Population": 109000,
            "Continent": "North America",
            "PeopleID3": 19416,
            "ROG3": "GJ"
        },
        {
            "PrimaryLanguageName": "Spanish",
            "BibleStatus": 5,
            "Latitude": 14.0873190647347001913658459670841693878173828125,
            "Longitude": -87.0676570651221055641144630499184131622314453125,
            "NaturalName": "Afro-Honduran",
            "Ctry": "Honduras",
            "Population": 207000,
            "Continent": "North America",
            "PeopleID3": 12118,
            "ROG3": "HO"
        },
        {
            "PrimaryLanguageName": "Arabic, Mesopotamian",
            "BibleStatus": 4,
            "Latitude": 30.42999999999999971578290569595992565155029296875,
            "Longitude": 47.75,
            "NaturalName": "Afro-Iraqi",
            "Ctry": "Iraq",
            "Population": 1000000,
            "Continent": "Asia",
            "PeopleID3": 22380,
            "ROG3": "IZ"
        },
        {
            "PrimaryLanguageName": "Spanish",
            "BibleStatus": 5,
            "Latitude": 12.0105450451177002690883455215953290462493896484375,
            "Longitude": -83.7715541870760063147827167995274066925048828125,
            "NaturalName": "Afro-Nicaraguan",
            "Ctry": "Nicaragua",
            "Population": 294000,
            "Continent": "North America",
            "PeopleID3": 19417,
            "ROG3": "NU"
        },
        {
            "PrimaryLanguageName": "Spanish",
            "BibleStatus": 5,
            "Latitude": -27.473943999999999476813172805123031139373779296875,
            "Longitude": -58.82851099999999888723323238082230091094970703125,
            "NaturalName": "Afro-Paraguayan",
            "Ctry": "Argentina",
            "Population": 1900,
            "Continent": "South America",
            "PeopleID3": 19623,
            "ROG3": "AR"
        },
        {
            "PrimaryLanguageName": "Spanish",
            "BibleStatus": 5,
            "Latitude": -25.02030366385120174754774780012667179107666015625,
            "Longitude": -57.62823713968600003454412217251956462860107421875,
            "NaturalName": "Afro-Paraguayan",
            "Ctry": "Paraguay",
            "Population": 68000,
            "Continent": "South America",
            "PeopleID3": 19623,
            "ROG3": "PA"
        },
        {
            "PrimaryLanguageName": "Spanish",
            "BibleStatus": 5,
            "Latitude": -34.70326200000000227419150178320705890655517578125,
            "Longitude": -58.3733620000000001937223714776337146759033203125,
            "NaturalName": "Afro-Peruvian",
            "Ctry": "Argentina",
            "Population": 1400,
            "Continent": "South America",
            "PeopleID3": 19624,
            "ROG3": "AR"
        },
        {
            "PrimaryLanguageName": "Spanish",
            "BibleStatus": 5,
            "Latitude": -11.7903477353056000964670602115802466869354248046875,
            "Longitude": -77.028109155548094122423208318650722503662109375,
            "NaturalName": "Afro-Peruvian",
            "Ctry": "Peru",
            "Population": 170000,
            "Continent": "South America",
            "PeopleID3": 19624,
            "ROG3": "PE"
        },
        {
            "PrimaryLanguageName": "Spanish",
            "BibleStatus": 5,
            "Latitude": 18.2350103128081997283516102470457553863525390625,
            "Longitude": -66.4261023118709061918707448057830333709716796875,
            "NaturalName": "Afro-Puerto Rican",
            "Ctry": "Puerto Rico",
            "Population": 377000,
            "Continent": "North America",
            "PeopleID3": 19625,
            "ROG3": "RQ"
        },
        {
            "PrimaryLanguageName": "Spanish",
            "BibleStatus": 5,
            "Latitude": -34.44940799999999825331542524509131908416748046875,
            "Longitude": -58.68882599999999882811607676558196544647216796875,
            "NaturalName": "Afro-Uruguayan",
            "Ctry": "Argentina",
            "Population": 2400,
            "Continent": "South America",
            "PeopleID3": 19626,
            "ROG3": "AR"
        },
        {
            "PrimaryLanguageName": "Spanish",
            "BibleStatus": 5,
            "Latitude": -32.8918634558639979559302446432411670684814453125,
            "Longitude": -55.74864549140699665485954028554260730743408203125,
            "NaturalName": "Afro-Uruguayan",
            "Ctry": "Uruguay",
            "Population": 68000,
            "Continent": "South America",
            "PeopleID3": 19626,
            "ROG3": "UY"
        },
        {
            "PrimaryLanguageName": "Vincentian English Creole",
            "BibleStatus": 3,
            "Latitude": 43.73709999999999809006112627685070037841796875,
            "Longitude": -79.434899999999998954081092961132526397705078125,
            "NaturalName": "Afro-Vincentian",
            "Ctry": "Canada",
            "Population": 5600,
            "Continent": "North America",
            "PeopleID3": 15794,
            "ROG3": "CA"
        },
        {
            "PrimaryLanguageName": "Vincentian English Creole",
            "BibleStatus": 3,
            "Latitude": 13.1853800000000003223021849407814443111419677734375,
            "Longitude": -61.2049099999999981491782818920910358428955078125,
            "NaturalName": "Afro-Vincentian",
            "Ctry": "St Vincent and Grenadines",
            "Population": 88000,
            "Continent": "North America",
            "PeopleID3": 15794,
            "ROG3": "VC"
        },
        {
            "PrimaryLanguageName": "Azerbaijani, South",
            "BibleStatus": 5,
            "Latitude": 34.44795999995400137549950159154832363128662109375,
            "Longitude": 69.289760000023903785404399968683719635009765625,
            "NaturalName": "Afshari",
            "Ctry": "Afghanistan",
            "Population": 16000,
            "Continent": "Asia",
            "PeopleID3": 19409,
            "ROG3": "AF"
        },
        {
            "PrimaryLanguageName": "Azerbaijani, South",
            "BibleStatus": 5,
            "Latitude": 36.6656540003317985565445269457995891571044921875,
            "Longitude": 48.73373000043920200141656096093356609344482421875,
            "NaturalName": "Afshari",
            "Ctry": "Iran",
            "Population": 401000,
            "Continent": "Asia",
            "PeopleID3": 19409,
            "ROG3": "IR"
        },
        {
            "PrimaryLanguageName": "Fembe",
            "BibleStatus": 1,
            "Latitude": -5.70701999999999998181010596454143524169921875,
            "Longitude": 142.2557199999999966166797094047069549560546875,
            "NaturalName": "Agala, Sinale",
            "Ctry": "Papua New Guinea",
            "Population": 1000,
            "Continent": "Australia",
            "PeopleID3": 10170,
            "ROG3": "PP"
        },
        {
            "PrimaryLanguageName": "Tamil",
            "BibleStatus": 5,
            "Latitude": 12.6901514559308008500693176756612956523895263671875,
            "Longitude": 79.9842688826378065414246520958840847015380859375,
            "NaturalName": "Agamudaiyan Mukkulattar",
            "Ctry": "India",
            "Population": 2500,
            "Continent": "Asia",
            "PeopleID3": 21311,
            "ROG3": "IN"
        },
        {
            "PrimaryLanguageName": "Tamil",
            "BibleStatus": 5,
            "Latitude": 7.01340638045571029834945875336416065692901611328125,
            "Longitude": 80.766448251152297643784550018608570098876953125,
            "NaturalName": "Nattaman Agamudaiyan",
            "Ctry": "Sri Lanka",
            "Population": 8900,
            "Continent": "Asia",
            "PeopleID3": 21312,
            "ROG3": "CE"
        },
        {
            "PrimaryLanguageName": "Tamil",
            "BibleStatus": 5,
            "Latitude": 10.884500643345500492387145641259849071502685546875,
            "Longitude": 78.59326362988230130213196389377117156982421875,
            "NaturalName": "Agamudaiyan Nattaman",
            "Ctry": "India",
            "Population": 782000,
            "Continent": "Asia",
            "PeopleID3": 21312,
            "ROG3": "IN"
        },
        {
            "PrimaryLanguageName": "Tamil",
            "BibleStatus": 5,
            "Latitude": 10.8819175091537996280521838343702256679534912109375,
            "Longitude": 78.56820831456019504912546835839748382568359375,
            "NaturalName": "Udayar Agamudaiyan",
            "Ctry": "India",
            "Population": 10000,
            "Continent": "Asia",
            "PeopleID3": 21313,
            "ROG3": "IN"
        },
        {
            "PrimaryLanguageName": "Tamil",
            "BibleStatus": 5,
            "Latitude": 7.01250000000000017763568394002504646778106689453125,
            "Longitude": 80.7661700000000024601831682957708835601806640625,
            "NaturalName": "Agamudaiyan unspecified",
            "Ctry": "Sri Lanka",
            "Population": 9400,
            "Continent": "Asia",
            "PeopleID3": 16172,
            "ROG3": "CE"
        },
        {
            "PrimaryLanguageName": "Tamil",
            "BibleStatus": 5,
            "Latitude": 10.8551010262112992421634771744720637798309326171875,
            "Longitude": 78.9779850015884932190601830370724201202392578125,
            "NaturalName": "Agamudaiyan unspecified",
            "Ctry": "India",
            "Population": 258000,
            "Continent": "Asia",
            "PeopleID3": 16172,
            "ROG3": "IN"
        },
        {
            "PrimaryLanguageName": "Agarabi",
            "BibleStatus": 4,
            "Latitude": -6.1926100000000001699618223938159644603729248046875,
            "Longitude": 145.911349999999998772182152606546878814697265625,
            "NaturalName": "Agarabi",
            "Ctry": "Papua New Guinea",
            "Population": 53000,
            "Continent": "Australia",
            "PeopleID3": 10171,
            "ROG3": "PP"
        },
        {
            "PrimaryLanguageName": "Urdu",
            "BibleStatus": 5,
            "Latitude": 26.608623462381299162871073349379003047943115234375,
            "Longitude": 82.06333677922060587661690078675746917724609375,
            "NaturalName": "Agariya (Muslim traditions)",
            "Ctry": "India",
            "Population": 18000,
            "Continent": "Asia",
            "PeopleID3": 16175,
            "ROG3": "IN"
        },
        {
            "PrimaryLanguageName": "Sindhi",
            "BibleStatus": 5,
            "Latitude": 26.01067993259999866495491005480289459228515625,
            "Longitude": 69.2364876737999992428740370087325572967529296875,
            "NaturalName": "Agariya (Muslim traditions)",
            "Ctry": "Pakistan",
            "Population": 1700,
            "Continent": "Asia",
            "PeopleID3": 16175,
            "ROG3": "PK"
        },
        {
            "PrimaryLanguageName": "Telugu",
            "BibleStatus": 5,
            "Latitude": 19.7595549011250994908550637774169445037841796875,
            "Longitude": 84.8274886484606014391829376108944416046142578125,
            "NaturalName": "Agaru",
            "Ctry": "India",
            "Population": 1900,
            "Continent": "Asia",
            "PeopleID3": 16176,
            "ROG3": "IN"
        },
        {
            "PrimaryLanguageName": "Agatu",
            "BibleStatus": 4,
            "Latitude": 7.907199999999999562305674771778285503387451171875,
            "Longitude": 7.7554899999999999948840923025272786617279052734375,
            "NaturalName": "Agatu",
            "Ctry": "Nigeria",
            "Population": 187000,
            "Continent": "Africa",
            "PeopleID3": 10172,
            "ROG3": "NI"
        },
        {
            "PrimaryLanguageName": "Portuguese",
            "BibleStatus": 5,
            "Latitude": -13.2984899999136008119648977299220860004425048828125,
            "Longitude": -53.4393599995643029387792921625077724456787109375,
            "NaturalName": "Agavotaguerra",
            "Ctry": "Brazil",
            "Population": 100,
            "Continent": "South America",
            "PeopleID3": 10173,
            "ROG3": "BR"
        },
        {
            "PrimaryLanguageName": "Dinka, Northeastern",
            "BibleStatus": 5,
            "Latitude": 10.3294643328126998227389776729978621006011962890625,
            "Longitude": 32.3530702649807011539451195858418941497802734375,
            "NaturalName": "Ageer",
            "Ctry": "South Sudan",
            "Population": 22000,
            "Continent": "Africa",
            "PeopleID3": 16177,
            "ROG3": "OD"
        },
        {
            "PrimaryLanguageName": "Kannada",
            "BibleStatus": 5,
            "Latitude": 15.01210620922829974688283982686698436737060546875,
            "Longitude": 74.83420390426380208737100474536418914794921875,
            "NaturalName": "Ager (Hindu traditions)",
            "Ctry": "India",
            "Population": 17000,
            "Continent": "Asia",
            "PeopleID3": 19163,
            "ROG3": "IN"
        },
        {
            "PrimaryLanguageName": "Sindhi",
            "BibleStatus": 5,
            "Latitude": 24.773779999999998580051396857015788555145263671875,
            "Longitude": 70.1365700000000060754246078431606292724609375,
            "NaturalName": "Ager (Hindu traditions)",
            "Ctry": "Pakistan",
            "Population": 1300,
            "Continent": "Asia",
            "PeopleID3": 19163,
            "ROG3": "PK"
        },
        {
            "PrimaryLanguageName": "Sindhi",
            "BibleStatus": 5,
            "Latitude": 25.49844413880619953260975307784974575042724609375,
            "Longitude": 68.5122946158150938344988389872014522552490234375,
            "NaturalName": "Ager (Muslim traditions)",
            "Ctry": "Pakistan",
            "Population": 8900,
            "Continent": "Asia",
            "PeopleID3": 19476,
            "ROG3": "PK"
        },
        {
            "PrimaryLanguageName": "Atta, Pamplona",
            "BibleStatus": 4,
            "Latitude": 18.47381000003139916998406988568603992462158203125,
            "Longitude": 121.2995500004320064135754364542663097381591796875,
            "NaturalName": "Aggay",
            "Ctry": "Philippines",
            "Population": 1600,
            "Continent": "Asia",
            "PeopleID3": 14012,
            "ROG3": "RP"
        },
        {
            "PrimaryLanguageName": "Aghem",
            "BibleStatus": 4,
            "Latitude": 6.38736000000000014864554032101295888423919677734375,
            "Longitude": 10.0754800000000006576783562195487320423126220703125,
            "NaturalName": "Aghem",
            "Ctry": "Cameroon",
            "Population": 52000,
            "Continent": "Africa",
            "PeopleID3": 10175,
            "ROG3": "CM"
        },
        {
            "PrimaryLanguageName": "Hindi",
            "BibleStatus": 5,
            "Latitude": 26.660436411926301758512636297382414340972900390625,
            "Longitude": 79.13546097408419655039324425160884857177734375,
            "NaturalName": "Aghori",
            "Ctry": "India",
            "Population": 82000,
            "Continent": "Asia",
            "PeopleID3": 16178,
            "ROG3": "IN"
        },
        {
            "PrimaryLanguageName": "Aghu",
            "BibleStatus": 1,
            "Latitude": -6.34522000000000030439650799962691962718963623046875,
            "Longitude": 140.09942000000000916770659387111663818359375,
            "NaturalName": "Aghu",
            "Ctry": "Indonesia",
            "Population": 4900,
            "Continent": "Asia",
            "PeopleID3": 10176,
            "ROG3": "ID"
        },
        {
            "PrimaryLanguageName": "Aghul",
            "BibleStatus": 3,
            "Latitude": 41.93084999999999951114659779705107212066650390625,
            "Longitude": 47.55402000000000128920873976312577724456787109375,
            "NaturalName": "Aghul",
            "Ctry": "Russia",
            "Population": 35000,
            "Continent": "Asia",
            "PeopleID3": 10184,
            "ROG3": "RS"
        },
        {
            "PrimaryLanguageName": "Agi",
            "BibleStatus": 1,
            "Latitude": -3.49340999999999990421883921953849494457244873046875,
            "Longitude": 142.419749999999993406163412146270275115966796875,
            "NaturalName": "Agi, Metru",
            "Ctry": "Papua New Guinea",
            "Population": 1700,
            "Continent": "Australia",
            "PeopleID3": 10177,
            "ROG3": "PP"
        },
        {
            "PrimaryLanguageName": "Agob",
            "BibleStatus": 3,
            "Latitude": -8.99389000000000038426151149906218051910400390625,
            "Longitude": 142.60158000000001266016624867916107177734375,
            "NaturalName": "Agob, Upiala-Bituri",
            "Ctry": "Papua New Guinea",
            "Population": 4800,
            "Continent": "Australia",
            "PeopleID3": 10178,
            "ROG3": "PP"
        },
        {
            "PrimaryLanguageName": "Robambami",
            "BibleStatus": 1,
            "Latitude": 5.8280300000000000437694325228221714496612548828125,
            "Longitude": 8.1817399999999995685584508464671671390533447265625,
            "NaturalName": "Agoi, Ibami",
            "Ctry": "Nigeria",
            "Population": 25000,
            "Continent": "Africa",
            "PeopleID3": 10179,
            "ROG3": "NI"
        },
        {
            "PrimaryLanguageName": "Marathi",
            "BibleStatus": 5,
            "Latitude": 19.616625526918799238274004892446100711822509765625,
            "Longitude": 73.4850120815448946132164564915001392364501953125,
            "NaturalName": "Agri",
            "Ctry": "India",
            "Population": 519000,
            "Continent": "Asia",
            "PeopleID3": 16180,
            "ROG3": "IN"
        },
        {
            "PrimaryLanguageName": "Tagalog",
            "BibleStatus": 5,
            "Latitude": 14.1200600000000004996536517865024507045745849609375,
            "Longitude": 122.0170600000000007412381819449365139007568359375,
            "NaturalName": "Alabat Island Agta",
            "Ctry": "Philippines",
            "Population": 80,
            "Continent": "Asia",
            "PeopleID3": 19310,
            "ROG3": "RP"
        },
        {
            "PrimaryLanguageName": "Manide",
            "BibleStatus": 2,
            "Latitude": 14.1571200000000008145661922753788530826568603515625,
            "Longitude": 122.8349699999999984356691129505634307861328125,
            "NaturalName": "Camarines Norte Agta",
            "Ctry": "Philippines",
            "Population": 4800,
            "Continent": "Asia",
            "PeopleID3": 13980,
            "ROG3": "RP"
        },
        {
            "PrimaryLanguageName": "Agta, Casiguran Dumagat",
            "BibleStatus": 4,
            "Latitude": 16.217600000000000903810359886847436428070068359375,
            "Longitude": 121.878209999999995716279954649507999420166015625,
            "NaturalName": "Casiguran Dumagat Agta",
            "Ctry": "Philippines",
            "Population": 900,
            "Continent": "Asia",
            "PeopleID3": 12392,
            "ROG3": "RP"
        },
        {
            "PrimaryLanguageName": "Agta, Central Cagayan",
            "BibleStatus": 4,
            "Latitude": 17.9570899998036992428751545958220958709716796875,
            "Longitude": 121.8571600004340069745012442581355571746826171875,
            "NaturalName": "Central Cagayan Agta",
            "Ctry": "Philippines",
            "Population": 1200,
            "Continent": "Asia",
            "PeopleID3": 11118,
            "ROG3": "RP"
        },
        {
            "PrimaryLanguageName": "Agta, Dupaninan",
            "BibleStatus": 4,
            "Latitude": 17.374769999735701020426859031431376934051513671875,
            "Longitude": 122.1881200003380030238986364565789699554443359375,
            "NaturalName": "Dupaninan Agta",
            "Ctry": "Philippines",
            "Population": 2000,
            "Continent": "Asia",
            "PeopleID3": 10180,
            "ROG3": "RP"
        },
        {
            "PrimaryLanguageName": "Bikol, Central",
            "BibleStatus": 5,
            "Latitude": 13.6620834472932006775636182283051311969757080078125,
            "Longitude": 123.5187654063980033924963208846747875213623046875,
            "NaturalName": "Isarog Agta",
            "Ctry": "Philippines",
            "Population": 1200,
            "Continent": "Asia",
            "PeopleID3": 12261,
            "ROG3": "RP"
        },
        {
            "PrimaryLanguageName": "Agta, Mt. Iraya",
            "BibleStatus": 1,
            "Latitude": 13.458800000000000096633812063373625278472900390625,
            "Longitude": 123.5521600000000006502887117676436901092529296875,
            "NaturalName": "Mt. Iraya Agta",
            "Ctry": "Philippines",
            "Population": 600,
            "Continent": "Asia",
            "PeopleID3": 13836,
            "ROG3": "RP"
        },
        {
            "PrimaryLanguageName": "Agta, Mt. Iriga",
            "BibleStatus": 1,
            "Latitude": 13.45656999999999925421434454619884490966796875,
            "Longitude": 123.462500000000005684341886080801486968994140625,
            "NaturalName": "Mt. Iriga Agta",
            "Ctry": "Philippines",
            "Population": 3800,
            "Continent": "Asia",
            "PeopleID3": 13837,
            "ROG3": "RP"
        },
        {
            "PrimaryLanguageName": "Agta, Pahanan",
            "BibleStatus": 4,
            "Latitude": 16.991519000000000261252353084273636341094970703125,
            "Longitude": 122.383995999999996229234966449439525604248046875,
            "NaturalName": "Pahanan Agta",
            "Ctry": "Philippines",
            "Population": 2200,
            "Continent": "Asia",
            "PeopleID3": 20541,
            "ROG3": "RP"
        },
        {
            "PrimaryLanguageName": "Agta, Umiray Dumaget",
            "BibleStatus": 4,
            "Latitude": 14.8756900003932006626428119488991796970367431640625,
            "Longitude": 121.508139999560995647698291577398777008056640625,
            "NaturalName": "Umiray Agta",
            "Ctry": "Philippines",
            "Population": 5300,
            "Continent": "Asia",
            "PeopleID3": 15709,
            "ROG3": "RP"
        },
        {
            "PrimaryLanguageName": "Awakateko",
            "BibleStatus": 4,
            "Latitude": 15.3387299999999999755573298898525536060333251953125,
            "Longitude": -91.316609999999997171471477486193180084228515625,
            "NaturalName": "Aguacatec",
            "Ctry": "Guatemala",
            "Population": 13000,
            "Continent": "North America",
            "PeopleID3": 10181,
            "ROG3": "GT"
        },
        {
            "PrimaryLanguageName": "Spanish",
            "BibleStatus": 5,
            "Latitude": -6.17684600000000028074964575353078544139862060546875,
            "Longitude": -75.4119319999999930814738036133348941802978515625,
            "NaturalName": "Aguano",
            "Ctry": "Peru",
            "Population": 200,
            "Continent": "South America",
            "PeopleID3": 20924,
            "ROG3": "PE"
        },
        {
            "PrimaryLanguageName": "Awajun",
            "BibleStatus": 5,
            "Latitude": -5.27212000000000013955059330328367650508880615234375,
            "Longitude": -77.9535800000000023146640160121023654937744140625,
            "NaturalName": "Aguaruna",
            "Ctry": "Peru",
            "Population": 65000,
            "Continent": "South America",
            "PeopleID3": 10183,
            "ROG3": "PE"
        },
        {
            "PrimaryLanguageName": "Aguna",
            "BibleStatus": 2,
            "Latitude": 7.5430299999999999016608853708021342754364013671875,
            "Longitude": 1.740909999999999957509544401546008884906768798828125,
            "NaturalName": "Aguna",
            "Ctry": "Benin",
            "Population": 22000,
            "Continent": "Africa",
            "PeopleID3": 10185,
            "ROG3": "BN"
        },
        {
            "PrimaryLanguageName": "Aguna",
            "BibleStatus": 2,
            "Latitude": 7.1323840000000000571844793739728629589080810546875,
            "Longitude": 1.5652019999999999821937990418518893420696258544921875,
            "NaturalName": "Aguna",
            "Ctry": "Togo",
            "Population": 19000,
            "Continent": "Africa",
            "PeopleID3": 10185,
            "ROG3": "TO"
        },
        {
            "PrimaryLanguageName": "Bengali",
            "BibleStatus": 5,
            "Latitude": 25.8673667251780017295459401793777942657470703125,
            "Longitude": 88.846610272225007065571844577789306640625,
            "NaturalName": "Aguri",
            "Ctry": "Bangladesh",
            "Population": 2600,
            "Continent": "Asia",
            "PeopleID3": 16182,
            "ROG3": "BG"
        },
        {
            "PrimaryLanguageName": "Bengali",
            "BibleStatus": 5,
            "Latitude": 23.198990738754101670338059193454682826995849609375,
            "Longitude": 87.7602205722640036356096970848739147186279296875,
            "NaturalName": "Aguri",
            "Ctry": "India",
            "Population": 618000,
            "Continent": "Asia",
            "PeopleID3": 16182,
            "ROG3": "IN"
        },
        {
            "PrimaryLanguageName": "Agutaynen",
            "BibleStatus": 4,
            "Latitude": 10.5327900001583003586347331292927265167236328125,
            "Longitude": 119.6554600001790049645933322608470916748046875,
            "NaturalName": "Agutaynon",
            "Ctry": "Philippines",
            "Population": 20000,
            "Continent": "Asia",
            "PeopleID3": 10187,
            "ROG3": "RP"
        },
        {
            "PrimaryLanguageName": "Agwagwune",
            "BibleStatus": 3,
            "Latitude": 5.77711000000000041154635255225002765655517578125,
            "Longitude": 8.0489499999999996049382389173842966556549072265625,
            "NaturalName": "Agwagwune, Akurakura",
            "Ctry": "Nigeria",
            "Population": 44000,
            "Continent": "Africa",
            "PeopleID3": 10188,
            "ROG3": "NI"
        },
        {
            "PrimaryLanguageName": "Axamb",
            "BibleStatus": 3,
            "Latitude": -16.49562999999999846068021724931895732879638671875,
            "Longitude": 167.706680000000005748006515204906463623046875,
            "NaturalName": "Ahamb",
            "Ctry": "Vanuatu",
            "Population": 1000,
            "Continent": "Oceania",
            "PeopleID3": 10190,
            "ROG3": "NH"
        },
        {
            "PrimaryLanguageName": "Ahan",
            "BibleStatus": 2,
            "Latitude": 7.73057000000000016370904631912708282470703125,
            "Longitude": 5.836240000000000094360075308941304683685302734375,
            "NaturalName": "Ahan",
            "Ctry": "Nigeria",
            "Population": 600,
            "Continent": "Africa",
            "PeopleID3": 10191,
            "ROG3": "NI"
        },
        {
            "PrimaryLanguageName": "Ahanta",
            "BibleStatus": 4,
            "Latitude": 4.859600000000000363797880709171295166015625,
            "Longitude": -1.94474999999999997868371792719699442386627197265625,
            "NaturalName": "Ahanta",
            "Ctry": "Ghana",
            "Population": 245000,
            "Continent": "Africa",
            "PeopleID3": 10192,
            "ROG3": "GH"
        },
        {
            "PrimaryLanguageName": "Hindi",
            "BibleStatus": 5,
            "Latitude": 28.830359322884799411212952691130340099334716796875,
            "Longitude": 79.663813563314903376522124744951725006103515625,
            "NaturalName": "Ahar",
            "Ctry": "India",
            "Population": 1719000,
            "Continent": "Asia",
            "PeopleID3": 16184,
            "ROG3": "IN"
        },
        {
            "PrimaryLanguageName": "Awadhi",
            "BibleStatus": 5,
            "Latitude": 27.901461161429100599207231425680220127105712890625,
            "Longitude": 83.09065590194160222381469793617725372314453125,
            "NaturalName": "Ahar",
            "Ctry": "Nepal",
            "Population": 2400,
            "Continent": "Asia",
            "PeopleID3": 16184,
            "ROG3": "NP"
        },
        {
            "PrimaryLanguageName": "Hindi",
            "BibleStatus": 5,
            "Latitude": 28.364607324423101175625561154447495937347412109375,
            "Longitude": 78.6985409416907941704266704618930816650390625,
            "NaturalName": "Aheria",
            "Ctry": "India",
            "Population": 199000,
            "Continent": "Asia",
            "PeopleID3": 16186,
            "ROG3": "IN"
        },
        {
            "PrimaryLanguageName": "Aheu",
            "BibleStatus": 1,
            "Latitude": 18.227399999999999380406734417192637920379638671875,
            "Longitude": 105.0056299999999964711605571210384368896484375,
            "NaturalName": "Aheu",
            "Ctry": "Laos",
            "Population": 600,
            "Continent": "Asia",
            "PeopleID3": 13129,
            "ROG3": "LA"
        },
        {
            "PrimaryLanguageName": "Aheu",
            "BibleStatus": 1,
            "Latitude": 17.29381000000000057070792536251246929168701171875,
            "Longitude": 103.445549999999997226041159592568874359130859375,
            "NaturalName": "Aheu",
            "Ctry": "Thailand",
            "Population": 1600,
            "Continent": "Asia",
            "PeopleID3": 13129,
            "ROG3": "TH"
        },
        {
            "PrimaryLanguageName": "Sinhala",
            "BibleStatus": 5,
            "Latitude": 7.12588843611179978410063995397649705410003662109375,
            "Longitude": 80.009708811703802666670526377856731414794921875,
            "NaturalName": "Ahinkuntaya",
            "Ctry": "Sri Lanka",
            "Population": 62000,
            "Continent": "Asia",
            "PeopleID3": 21385,
            "ROG3": "CE"
        },
        {
            "PrimaryLanguageName": "Bengali",
            "BibleStatus": 5,
            "Latitude": 24.347617570298499600767172523774206638336181640625,
            "Longitude": 90.550626727133703752770088613033294677734375,
            "NaturalName": "Ahmadi",
            "Ctry": "Bangladesh",
            "Population": 3200,
            "Continent": "Asia",
            "PeopleID3": 19477,
            "ROG3": "BG"
        },
        {
            "PrimaryLanguageName": "Urdu",
            "BibleStatus": 5,
            "Latitude": 28.324090639192700535886615398339927196502685546875,
            "Longitude": 79.9346975081405020091551705263555049896240234375,
            "NaturalName": "Ahmadi",
            "Ctry": "India",
            "Population": 87000,
            "Continent": "Asia",
            "PeopleID3": 19477,
            "ROG3": "IN"
        },
        {
            "PrimaryLanguageName": "Punjabi, Western",
            "BibleStatus": 4,
            "Latitude": 31.3733867714449985442115576006472110748291015625,
            "Longitude": 74.375294970295698249174165539443492889404296875,
            "NaturalName": "Ahmadi",
            "Ctry": "Pakistan",
            "Population": 97000,
            "Continent": "Asia",
            "PeopleID3": 19477,
            "ROG3": "PK"
        },
        {
            "PrimaryLanguageName": "Assamese",
            "BibleStatus": 5,
            "Latitude": 27.9068576707118012336650281213223934173583984375,
            "Longitude": 95.672003810937297885175212286412715911865234375,
            "NaturalName": "Ahom",
            "Ctry": "India",
            "Population": 2076000,
            "Continent": "Asia",
            "PeopleID3": 16189,
            "ROG3": "IN"
        },